City, State, Lat, Long 
Amri,Assam, 26.186085, 93.5812692
Amri,Assam, 26.186085, 93.5812692
Amri,Assam, 26.186085, 93.5812692
Baulagog,Assam, 26.076393, 92.326004
Beltola,Assam, 26.1299856, 91.7992658
Amguri,Assam, 26.8101683, 94.5237707
Ouguri,Assam, 26.6396025, 90.53287209999999
Pumakunchi,Assam, 26.01458, 92.360939
Amserli,Assam, 26.061377, 92.318573
Lembra,Assam, 26.022476, 92.31778
Rakhui Hidi,Assam, 26.020428, 92.352363
Keng Abat,Assam, 26.0052549, 92.37746399999999
Sinari Roman,Assam, 26.075157, 92.44026199999999
Amduba,Assam, 26.066172, 92.472893
Kumrai Khura,Assam, 26.094748, 92.485962
Hadau,Assam, 25.968046, 92.28643799999999
Bogajamin,Assam, 26.015322, 92.38565799999999
Tharakunchi,Assam, 26.008169, 92.307068
Mugaguri,Assam, 25.977709, 92.365387
Silangkunchi,Assam, 25.998402, 92.304108
Uthankunchi,Assam, 26.013207, 92.33279399999999
Langerdang,Assam, 25.978224, 92.433922
Phutsari,Assam, 25.99284, 92.430908
Khaplang Kunchi,Assam, 25.983118, 92.42247
Roman Marjong,Assam, 25.955729, 92.425202
Umswai,Assam, 25.932285, 92.444183
Lang Arkhon(Umswai),Assam, 25.932285, 92.444183
Chidamakha,Assam, 25.922472, 92.40580790000001
Amsubra,Assam, 25.970888, 92.411087
Umlata-Ap,Assam, 25.965542, 92.42845899999999
Umswai Langdo(Lalung),Assam, 25.9276899, 92.4381329
Marjong Lalung,Assam, 25.94282, 92.411171
Marjong,Assam, 26.063149, 92.51570099999999
Rapadang,Assam, 25.929155, 92.425613
Pantalo,Assam, 25.941284, 92.4448929
Mokaba,Assam, None
Moroh,Assam, 25.920427, 92.445015
Denghar,Assam, 25.681473, 92.49676500000001
Umseneng(Maolen),Assam, 25.696627, 92.495262
Khon Amkha,Assam, 25.934217, 92.344139
Mokoidharam,Assam, 25.99398, 92.49797799999999
Umjiri,Assam, None
Um-Hi,Assam, 25.965557, 92.340828
Langhanjar(Phangeho),Assam, None
Rongchek,Assam, 25.872484, 92.49134099999999
Umpanai Dukan,Assam, 25.937366, 92.33247399999999
Birsingki,Assam, 25.953114, 92.351608
Umsamukh,Assam, 25.911469, 92.358482
Umbormon,Assam, 25.924345, 92.3375715
Mubai,Assam, None
Singkung,Assam, 25.928753, 92.34915199999999
Ullukuachi,Assam, None
Umkasi,Assam, 25.960354, 92.35681199999999
Maslai Kunchi,Assam, None
Harba-Sa,Assam, 25.982054, 92.373222
Rongchirim,Assam, 25.711504, 92.48529099999999
Rong Arak,Assam, 25.73394, 92.491196
Kramkunchi,Assam, None
Morten-1,Assam, 25.948263, 92.371506
Morten-2(Nongtham),Assam, 25.940981, 92.379105
Silaguri,Assam, 25.943514, 92.376572
Nongtham,Assam, None
Terangnagor,Assam, 25.953104, 92.388145
Mailangcheng,Assam, 25.981253, 92.401543
Kro Kengdang,Assam, None
Engti Thengkiri,Assam, 25.952803, 92.370712
Lakhon Gaon,Assam, None
Ronghang Gaon,Assam, None
Kakoti Goan,Assam, 26.2049769, 92.5519885
Bichi-Thur,Assam, 26.070938, 92.477318
Borgaon,Assam, 26.071394, 92.45699300000001
Ahom Buroi,Assam, 26.082048, 92.476494
Balikunchi-2,Assam, 26.087017, 92.51310000000001
Dalimbari,Assam, 26.069908, 92.46438599999999
Sinai Nadi,Assam, None
Voksong(Ghelapata),Assam, 26.134647, 92.506706
Langteng,Assam, 25.838493, 92.52674100000002
Mayang,Assam, 26.258852, 92.04079039999999
Langlongku,Assam, 25.8944383, 92.3135353
Burajungthung,Assam, 26.096622, 92.510429
Karbi Lalung,Assam, 26.092165, 92.50516499999999
Keraidong,Assam, None
Kong-Kat,Assam, 26.058784, 92.47823299999999
Saru-Amli,Assam, 26.067627, 92.42394999999999
Bor-Amli,Assam, 26.082453, 92.431267
Chupi-Kelok,Assam, 26.016317, 92.39562199999999
Langpok-Kang,Assam, 26.021276, 92.408394
Mortel,Assam, 26.031521, 92.407967
Ben Terang,Assam, 26.022728, 92.416023
Hatigarh,Assam, 26.7748429, 91.9319117
Dighali Pukhuri,Assam, 26.1877435, 91.7511437
Borkok,Assam, 25.969919, 92.381096
Langlongku,Assam, 25.8944383, 92.3135353
Khatomari,Assam, 25.967279, 92.389938
Karbi Archon,Assam, 25.94635, 92.529129
Plimplam Abi,Assam, None
Tengkeralangso-1,Assam, 25.938934, 92.387772
Tengkeralangso-2,Assam, 25.964628, 92.385323
Sar Engti,Assam, 26.440811, 93.1164469
Phangchophe-Re-Re,Assam, 26.055674, 92.46106700000001
Tumprop,Assam, 26.05023, 92.45047
Harlok Jasera,Assam, 25.875952, 92.419128
Khaya Hanse,Assam, 25.869125, 92.406509
Lengri,Assam, None
Amtereng,Assam, None
Minro,Assam, 25.8354779, 92.413887
Umswai Christian,Assam, 25.941462, 92.25297499999999
Rong Arkhon,Assam, 25.937569, 92.258484
Ouguri T.E.,Assam, 26.058336, 92.3019939
Barim Gaon,Assam, 26.090742, 92.478645
Dukekpi,Assam, 26.08802, 92.47874399999999
Soru Rongkhoi,Assam, None
Useneng,Assam, 26.081026, 92.484657
Mithi Gaon,Assam, 26.119068, 92.486221
Bong Sal,Assam, None
Pandong Mohe,Assam, None
Chong-Kup,Assam, None
Amri Khat,Assam, 25.832169, 92.32712599999999
Rong Phom,Assam, 25.877258, 92.3545
Rongkongtui,Assam, 25.820076, 92.33494600000002
Arsong,Assam, 25.873879, 92.3906329
Solamukha,Assam, 25.7500399, 92.67877200000001
Amsolong R F,Assam, 26.02615, 92.298302
Sinai Nadi R F,Assam, 26.118126, 92.507904
Jukuta Rf.,Assam, None
Tmulbari Rf.,Assam, 25.927897, 92.381264
Chinthong,Assam, 26.487503, 93.089722
Chinthong,Assam, 26.487503, 93.089722
Thangsing Senar,Assam, 25.949738, 92.515198
Langmekloo,Assam, 25.94887, 92.50825499999999
Thanghonsing,Assam, 25.937515, 92.500137
Natun Borpathar,Assam, 25.932631, 92.505387
Rong-Ikso,Assam, 26.089058, 92.56858799999999
Rongphelang,Assam, 26.07513, 92.567093
Sarleng Tisso,Assam, 26.097963, 92.555527
Bogori Anglong,Assam, 26.056862, 92.548409
Rongkangtui,Assam, 26.053913, 92.5533449
Amlokkhi,Assam, None
Sarbura Senar,Assam, 26.052834, 92.56391099999999
Langtuk Teron,Assam, 26.036388, 93.31481199999999
Sarbura Teron,Assam, 26.0456119, 92.564461
Rongagora,Assam, 26.6836873, 92.12783979999999
Sucha,Assam, 26.045118, 92.551315
Maj Barpathar,Assam, 25.9997061, 92.5557048
Maisam,Assam, 25.902258, 92.541984
Eden Bari,Assam, 25.896629, 92.53604899999999
Ran Habai,Assam, 25.895065, 92.53010599999999
Borsing Hanse,Assam, 25.896629, 92.526039
Rongkimi,Assam, None
Tharve-Abi,Assam, 25.887564, 92.52948
Doloni,Assam, 25.9706249, 92.699074
Enghin Gaon,Assam, 25.887564, 92.538856
Kharupindha,Assam, None
Rongmandu,Assam, 25.770452, 92.368736
Larsing Engti,Assam, 25.917807, 92.535912
Umru Phong Langso,Assam, None
Longle-Athan,Assam, None
Birsokro Gaon,Assam, 25.911032, 92.686386
Chamr,Assam, 25.915327, 92.67868000000001
Phetkuso,Assam, 25.907408, 92.67926790000001
Langang Senar Gaon,Assam, 25.906372, 92.686836
Umtalong,Assam, 25.732031, 92.56708499999999
Umchera,Assam, 25.750757, 92.4884639
Umphu Karbi,Assam, 25.746666, 92.478104
Umphu Kuki,Assam, 25.748266, 92.471245
Mujong Nepali,Assam, 25.7649459, 92.51200899999999
Langkircha,Assam, 25.7523899, 92.412483
Longpai,Assam, 25.79459, 92.5056
Socheng,Assam, 25.931446, 92.562179
Mokoiram,Assam, 25.757013, 92.490105
Arting Sanphaw,Assam, 25.7345219, 92.438942
Langap,Assam, 25.750296, 92.702232
Langang Tokbi,Assam, 25.925383, 92.535721
Langang Rongphar,Assam, 25.934891, 92.54201499999999
Dikisir,Assam, None
Langteng Senar,Assam, 25.947504, 92.544617
Jhaluklangteng,Assam, 25.958904, 92.50052699999999
Laram,Assam, 25.935614, 92.50593599999999
Batlok Teron Gaon,Assam, 25.924376, 92.457855
Engti Habai,Assam, None
Umru,Assam, 25.921152, 92.533554
Wodilangso,Assam, 25.929596, 92.53688799999999
Longre,Assam, 25.936129, 92.54495999999999
Larsing,Assam, 25.9422989, 92.556671
Biriklongtar,Assam, None
Langsangti,Assam, 25.889456, 92.577812
Sumer Pathar(Langparpan),Assam, 25.879751, 92.576858
Langsomepi,Assam, 25.645632, 92.72408999999999
Langlongdang,Assam, 25.855106, 92.560631
Long-E-Lubui,Assam, 25.916082, 92.50151799999999
Malingkisir,Assam, 25.916567, 92.5128019
Dengthawali,Assam, 25.896797, 92.429146
Kungripi,Assam, 25.896217, 92.4342039
Kamaidap,Assam, 25.8952269, 92.44247399999999
Amser,Assam, None
Rongjangphong,Assam, 25.724922, 92.78949
Patimukha,Assam, 25.917883, 92.424812
Thengmu,Assam, 25.879917, 92.446129
Latmarleng,Assam, 25.830231, 92.403824
Langhonjar(Phangcho),Assam, 25.851868, 92.415192
Umat,Assam, 25.807039, 92.18315899999999
Mausaladyang,Assam, 25.791328, 92.188278
Umru Laru,Assam, 25.795494, 92.21043399999999
Lowai Amsih,Assam, 25.789448, 92.212303
Umlapher,Assam, 25.783346, 92.20828999999999
Ratial,Assam, 25.774893, 92.212723
Pabang,Assam, 25.765057, 92.2122569
Dengthit,Assam, 25.753347, 92.218811
Sabuda,Assam, 25.754751, 92.223495
Khili Umwang,Assam, 25.6809179, 92.182587
Lumphus,Assam, 25.6891779, 92.18508899999999
Moput,Assam, 25.695736, 92.184151
Umwang,Assam, 25.697256, 92.196579
Umteliah,Assam, 25.710146, 92.205726
Umsarang,Assam, 25.724449, 92.230721
Pampura,Assam, 25.728914, 92.29074899999999
Rupai,Assam, 27.5957736, 95.5618724
Rumphum,Assam, 25.781723, 92.368973
Lang-Er-Dang,Assam, 25.812103, 92.417541
Umdap,Assam, 25.851768, 92.468338
Monjili,Assam, 25.848125, 92.48207099999999
Umphanchi,Assam, 25.844938, 92.47487699999999
Rongmandiu,Assam, 25.7993549, 92.38143199999999
Oklokpi,Assam, 25.747885, 92.365028
Murap,Assam, 25.794033, 92.36842299999999
Lang-Ikso,Assam, 25.78488, 92.324135
Serengdap,Assam, 25.777197, 92.326767
Rongmandu(Engti Gaon),Assam, 25.88669, 92.56166900000001
Umlado,Assam, 25.775358, 92.36026
Singdoloi,Assam, 25.765617, 92.400566
Morinto,Assam, 25.752972, 92.3858489
Birmaine,Assam, 25.792591, 92.425606
Patikyndok,Assam, 25.913984, 92.410469
Bukiching,Assam, None
Langteng Rongphar,Assam, None
Rongchek,Assam, 25.872484, 92.49134099999999
Tirkim,Assam, 25.834446, 92.57481399999999
Langmet-2,Assam, None
Umrini Gaon,Assam, 25.861038, 92.51997399999999
Amtereng,Assam, 25.841415, 92.4148249
Borpu,Assam, 25.918047, 92.573807
Umrinti Gaon No.2,Assam, 25.911984, 92.56777199999999
Langmet-1,Assam, 25.852493, 92.52257499999999
Umpaklong,Assam, 25.742994, 92.384186
Chiri,Assam, 24.8048581, 93.0219499
Engti Gaon,Assam, 25.980165, 92.493279
Maina Hanse Gaon,Assam, 25.987453, 92.530441
Langang Engti Gaon,Assam, 26.006384, 92.502747
Solu Rongphar,Assam, 26.003229, 92.52660399999999
Wadilangso,Assam, 26.008829, 92.53164699999999
Kongehing Tokbi Gaon,Assam, 26.01009, 92.516037
Masereng,Assam, 25.906317, 92.45513199999999
Rongchomang Sevar,Assam, 25.8924619, 92.45400200000002
Parbat Gaon(Rongkhlan),Assam, 25.897488, 92.464928
Patarao,Assam, 25.894327, 92.4592739
Maine Bey Gaon,Assam, 25.889757, 92.46817
Arlong Sarlong,Assam, 25.75963, 92.55451200000002
Chinong Kadai,Assam, 25.899216, 92.3981249
Mane Teron Gaon,Assam, 25.887117, 92.413094
Lang Makang,Assam, 25.821043, 92.53273
Rongkhang,Assam, 25.767965, 92.5680919
Rongkhang,Assam, 25.767965, 92.5680919
Baithalangso,Assam, 25.9650553, 92.5941239
Rongtara,Assam, 26.465397, 93.13540599999999
Tika,Assam, 25.9486078, 92.6052838
Umcheret,Assam, 25.926466, 92.622765
Uzandonka,Assam, 25.88332, 92.59716
Linchika,Assam, 25.882483, 92.6766279
Somupong,Assam, 25.878948, 92.678314
Amsalam,Assam, 25.871996, 92.67608600000001
